City_ID,City,Cloudiness,Country,Date,Humidity,Lat,Lng,Max Temp,Wind Speed
0,Albany County,75,US,1589836347,63,42.6001,-73.9662,64.4,8.05
1,Hithadhoo,100,MV,1589835969,75,-0.6,73.0833,84.6,23.02
2,Khovd,33,MN,1589836176,37,48.0056,91.6419,57.52,2.04
3,Panlaitan,59,PH,1589836281,72,12.1191,119.8486,84.42,1.52
4,Mataura,11,NZ,1589836648,89,-46.1927,168.8643,36.1,2.1
5,Kaitangata,20,NZ,1589836332,90,-46.2817,169.8464,37.13,1.86
6,Vila Velha,40,BR,1589836527,88,-20.3297,-40.2925,75.2,9.17
7,Dwārka,0,IN,1589836170,86,22.2394,68.9678,81.07,11.07
8,Ampanihy,0,MG,1589836157,78,-24.7,44.75,58.6,7.43
9,Kruisfontein,100,ZA,1589836157,82,-34.0033,24.7314,55.54,4.47
10,Boyolangu,89,ID,1589836179,89,-8.1181,111.8935,76.48,3.42
11,Coyhaique,90,CL,1589836561,81,-45.5752,-72.0662,44.6,6.93
12,Punta Arenas,90,CL,1589836561,93,-53.15,-70.9167,42.8,18.34
13,Saint-Philippe,90,RE,1589835958,68,-21.3585,55.7679,69.8,5.82
14,Nikolskoye,0,RU,1589835924,93,59.7035,30.7861,39.0,4.47
15,Inuvik,75,CA,1589836635,58,68.3499,-133.7218,30.2,6.93
16,Saskylakh,100,RU,1589836325,96,71.9167,114.0833,37.69,1.88
17,Severo-Kuril’sk,100,RU,1589836332,84,50.6789,156.125,37.67,12.62
18,Ushuaia,75,AR,1589836560,93,-54.8,-68.3,39.2,6.93
19,Kamaishi,100,JP,1589836191,90,39.2667,141.8833,54.25,11.56
20,Angul,100,IN,1589836173,71,20.85,85.1,83.62,4.29
21,Ilhabela,27,BR,1589836531,82,-23.7781,-45.3581,69.62,2.91
22,Takāb,0,IR,1589836143,26,36.4009,47.1133,57.0,2.91
23,Torbay,75,CA,1589836373,60,47.6666,-52.7314,45.0,6.93
24,Coquimbo,20,CL,1589836561,63,-29.9533,-71.3436,62.6,5.82
25,Cape Town,100,ZA,1589836522,87,-33.9258,18.4232,62.01,2.24
26,Taseyevo,0,RU,1589835970,87,57.2169,94.8978,50.59,2.33
27,Butaritari,100,KI,1589836321,71,3.0707,172.7902,83.16,17.2
28,Busselton,95,AU,1589836331,94,-33.65,115.3333,48.0,4.0
29,Cidreira,0,BR,1589836259,89,-30.1811,-50.2056,65.8,8.25
30,Buchanan,100,LR,1589836193,89,5.8808,-10.0467,78.73,6.31
31,Vostok,0,RU,1589836324,66,46.4856,135.8833,38.5,3.11
32,Cabo San Lucas,5,MX,1589836567,44,22.8909,-109.9124,86.0,11.41
33,Jamestown,1,US,1589836612,64,42.097,-79.2353,68.0,14.99
34,Hilo,75,US,1589836631,61,19.7297,-155.09,81.0,4.7
35,Bonavista,83,CA,1589836367,85,48.6499,-53.1147,36.0,3.0
36,Tasiilaq,0,GL,1589836235,86,65.6145,-37.6368,30.2,4.7
37,Katsuura,75,JP,1589836191,94,35.1333,140.3,69.8,10.29
38,Nador,0,MA,1589836198,68,35.174,-2.9287,68.0,1.52
39,Longyearbyen,75,SJ,1589836201,74,78.2186,15.6401,35.6,6.93
40,Bokovskaya,82,RU,1589835928,81,49.229,41.8306,50.18,13.8
41,Kapa‘a,90,US,1589836366,94,22.0752,-159.319,73.4,14.99
42,Port Lincoln,83,AU,1589836331,53,-34.7333,135.8667,57.09,14.0
43,Lárdos,1,GR,1589835913,57,36.0942,28.0157,82.0,5.82
44,Airai,96,TL,1589836275,73,-8.9266,125.4092,67.53,3.8
45,New Norfolk,100,AU,1589836337,78,-42.7826,147.0587,48.0,2.26
46,George Town,20,MY,1589836182,94,5.4112,100.3354,82.4,4.92
47,Golyshmanovo,100,RU,1589835971,91,56.3979,68.3728,57.38,6.35
48,Mirador,5,BR,1589836232,84,-6.3708,-44.3631,77.49,3.42
49,Guerrero Negro,0,MX,1589836305,55,27.9769,-114.0611,72.21,15.64
50,Neyshābūr,0,IR,1589836143,34,36.2133,58.7958,61.3,1.19
51,Hobart,75,AU,1589836145,87,-42.8794,147.3294,51.01,4.7
52,Pevek,0,RU,1589836332,93,69.7008,170.3133,28.18,1.86
53,Provideniya,40,RU,1589836570,62,64.3833,-173.3,42.8,20.13
54,Camacha,40,PT,1589836337,82,33.0833,-16.3333,62.6,8.05
55,Tremedal,96,BR,1589836248,71,-14.9758,-41.4108,71.67,6.51
56,Japura,100,ID,1589835977,97,-0.3167,102.35,74.1,0.69
57,Gambēla,99,ET,1589836149,64,8.25,34.5833,76.14,3.98
58,Rikitea,100,PF,1589836305,86,-23.1203,-134.9692,77.79,16.51
59,Qaanaaq,17,GL,1589836290,85,77.484,-69.3632,33.46,0.07
60,Maple Creek,99,CA,1589836635,43,49.9168,-109.4848,69.57,9.01
61,Coos Bay,75,US,1589836630,72,43.3665,-124.2179,60.8,12.75
62,Carnarvon,0,AU,1589836331,51,-24.8667,113.6333,63.48,22.64
63,Iqaluit,20,CA,1589836368,69,63.7506,-68.5145,35.6,8.05
64,Ilulissat,44,GL,1589836527,45,69.2167,-51.1,42.8,5.82
65,Dikson,90,RU,1589835971,98,73.5069,80.5464,30.52,11.39
66,Bambari,94,CF,1589836146,73,5.768,20.6757,74.07,1.5
67,Lompoc,75,US,1589836621,56,34.6391,-120.4579,69.8,14.99
68,Barrow,90,US,1589836631,79,71.2906,-156.7887,24.8,14.99
69,Aquiraz,20,BR,1589836526,78,-3.9014,-38.3911,82.4,10.29
70,Bredasdorp,100,ZA,1589835958,93,-34.5322,20.0403,53.6,1.12
71,Kalmunai,100,LK,1589836161,74,7.4167,81.8167,81.97,4.32
72,Saint Pete Beach,75,US,1589836279,83,27.7253,-82.7412,77.0,11.41
73,Plettenberg Bay,100,ZA,1589836156,71,-34.0527,23.3716,62.29,2.51
74,Arraial do Cabo,20,BR,1589836536,83,-22.9661,-42.0278,75.2,8.05
75,Atuona,29,PF,1589836305,68,-9.8,-139.0333,81.07,11.21
76,Nanortalik,90,GL,1589836240,72,60.1432,-45.2371,39.6,10.42
77,Puri,40,IN,1589836165,84,19.8,85.85,86.0,8.05
78,Bandarbeyla,22,SO,1589835905,68,9.4942,50.8122,84.34,19.26
79,Glendive,1,US,1589836626,46,47.1053,-104.7125,73.4,26.4
80,Anadyr,20,RU,1589836333,92,64.75,177.4833,32.0,11.18
81,Hermanus,100,ZA,1589836522,82,-34.4187,19.2345,62.01,3.0
82,Price,1,US,1589836362,10,39.5994,-110.8107,80.6,17.22
83,Sinnamary,51,GF,1589836230,89,5.3833,-52.95,79.65,8.03
84,Port Alfred,100,ZA,1589836156,95,-33.5906,26.891,60.01,4.0
85,Oranjemund,100,NA,1589836228,45,-28.55,16.4333,65.07,7.61
86,Chuy,0,UY,1589836246,77,-33.6971,-53.4616,61.21,9.15
87,Puerto Ayora,40,EC,1589836281,52,-0.7393,-90.3518,89.6,13.87
88,Cherskiy,0,RU,1589836333,60,68.75,161.3,41.34,7.07
89,Mora,92,CM,1589836158,29,11.0461,14.1401,90.84,3.02
90,Carutapera,9,BR,1589836233,82,-1.195,-46.02,79.43,6.53
91,Brufut,39,GM,1589836195,83,13.3814,-16.7518,75.2,9.17
92,Avarua,100,CK,1589836570,66,-21.2078,-159.775,75.74,12.37
93,Kurchum,42,KZ,1589835972,51,48.5722,83.6542,63.64,4.56
94,Honiara,75,SB,1589836190,88,-9.4333,159.95,77.0,3.36
95,Ahipara,0,NZ,1589836332,70,-35.1667,173.1667,57.2,5.06
96,Lebu,100,CL,1589836561,94,-37.6167,-73.65,57.67,4.99
97,Dudinka,75,RU,1589836175,80,69.4058,86.1778,41.0,6.71
98,Hamilton County,90,US,1589836324,93,39.1834,-84.5333,60.8,6.93
99,Pak Phanang,84,TH,1589836177,80,8.3511,100.202,81.86,5.46
100,La Ronge,90,CA,1589836370,67,55.1001,-105.2842,57.2,12.75
101,Faanui,1,PF,1589836570,75,-16.4833,-151.75,81.86,13.49
102,Kaeo,0,NZ,1589836332,3,-35.1,173.7833,53.01,5.01
103,East London,100,ZA,1589836157,79,-33.0153,27.9116,64.35,10.31
104,Tiksi,90,RU,1589836325,98,71.6872,128.8694,30.56,4.68
105,Kodiak,90,US,1589836631,87,57.79,-152.4072,46.4,17.22
106,Vaini,75,TO,1589836305,78,-21.2,-175.2,75.2,5.82
107,Avera,1,US,1589836313,69,33.194,-82.5271,82.4,8.05
108,Estación Coahuila,5,MX,1589836301,9,32.1939,-115.0017,95.0,4.7
109,Antalaha,40,MG,1589836157,80,-14.9003,50.2788,73.29,13.02
110,Bridgton,1,US,1589836339,24,44.0548,-70.7128,71.6,6.13
111,Serchhīp,97,IN,1589836164,64,23.3,92.8333,69.93,1.77
112,Bethel,40,US,1589836621,55,41.3712,-73.414,66.2,11.41
113,Manaus,75,BR,1589836551,94,-3.1019,-60.025,77.0,2.28
114,Souillac,40,MU,1589835957,56,-20.5167,57.5167,73.4,6.93
115,Yabēlo,10,ET,1589836149,57,4.8833,38.0833,55.44,5.61
116,Tuktoyaktuk,90,CA,1589836374,86,69.4541,-133.0374,28.4,10.29
117,Trairi,0,BR,1589836522,81,-3.2778,-39.2689,79.68,9.28
118,Pemangkat,100,ID,1589836179,90,1.1667,108.9667,76.08,5.79
119,Srednekolymsk,0,RU,1589836332,68,67.45,153.6833,39.65,11.77
120,Clyde River,1,CA,1589836369,92,70.4692,-68.5914,28.4,4.21
121,Leningradskiy,97,RU,1589836333,96,69.3833,178.4167,28.45,3.91
122,Sotik Post,16,KE,1589835907,55,-0.7813,35.3416,55.15,4.23
123,Iranshahr,0,IR,1589836158,14,27.2025,60.6848,89.6,11.41
124,Upernavik,0,GL,1589836240,80,72.7868,-56.1549,35.53,6.02
125,Tuatapere,1,NZ,1589836333,84,-46.1333,167.6833,39.15,3.67
126,Bonwapitse,0,BW,1589836154,30,-23.0766,26.7037,60.03,3.71
127,Sandviken,61,SE,1589836201,64,60.6167,16.7667,43.0,1.72
128,Kununurra,98,AU,1589836331,77,-15.7667,128.7333,62.6,8.7
129,Wewak,82,PG,1589836190,87,-3.5534,143.6268,79.39,6.22
130,Caravelas,3,BR,1589836259,80,-17.7125,-39.2481,75.04,8.39
131,Sabla,65,NG,1589836194,20,12.7525,4.7077,98.73,3.98
132,Aklavik,75,CA,1589836366,58,68.2191,-135.0107,30.2,6.93
133,Mahébourg,40,MU,1589836156,56,-20.4081,57.7,73.4,6.93
134,San Cristobal,40,VE,1589836551,34,7.7669,-72.225,95.0,21.92
135,Mahibadhoo,100,MV,1589835970,77,3.7833,72.9667,85.32,23.22
136,Marzuq,66,YE,1589835905,36,14.4,46.4667,82.85,4.56
137,Hasaki,75,JP,1589836191,100,35.7333,140.8333,66.2,13.87
138,Bandar-e Lengeh,48,IR,1589836144,29,26.5579,54.8807,89.85,8.59
139,Norman Wells,90,CA,1589836368,55,65.282,-126.8329,33.8,11.41
140,Castro,0,BR,1589836536,40,-24.7911,-50.0119,59.07,4.68
141,Meïganga,93,CM,1589836158,70,6.5167,14.3,69.08,2.62
142,Maó,40,ES,1589836181,77,39.8885,4.2658,64.4,5.82
143,Chokurdakh,5,RU,1589836333,96,70.6333,147.9167,24.67,7.58
144,Faya,96,SA,1589836143,55,18.3851,42.4509,68.0,8.05
145,Esperance,40,AU,1589836331,87,-33.8667,121.9,46.4,4.7
146,Suntar,100,RU,1589836325,80,62.1444,117.6319,49.46,3.83
147,Talas,43,TR,1589836148,59,38.6908,35.5538,62.6,8.05
148,Bluff,56,NZ,1589836332,86,-46.6,168.3333,41.76,7.65
149,Bereda,33,ES,1589836487,84,43.2686,-7.5406,59.0,2.68
150,Bandundu,19,CD,1589836155,76,-3.3167,17.3667,76.66,1.36
151,Ust-Nera,7,RU,1589836332,60,64.5667,143.2,38.8,5.44
152,Margate,100,GB,1589836193,70,51.3813,1.3862,60.01,9.82
153,Kavieng,40,PG,1589836332,80,-2.5744,150.7967,83.62,16.13
154,Luwuk,100,ID,1589836179,76,-0.9516,122.7875,79.68,2.8
155,Saint-Augustin,75,CA,1589836372,77,51.226,-58.6502,39.52,8.12
156,Ribeira Grande,75,PT,1589836229,93,38.5167,-28.7,64.4,12.75
157,Vao,54,NC,1589836331,61,-22.6667,167.4833,70.83,14.45
158,Namuac,0,PH,1589835983,78,18.6109,121.1657,78.3,4.34
159,Alofi,40,NU,1589836570,78,-19.0595,-169.9187,77.0,5.82
160,Petropavlovsk-Kamchatsky,94,RU,1589836191,93,53.0452,158.6483,39.2,6.71
161,Kathmandu,40,NP,1589836174,88,27.7167,85.3167,68.0,3.36
162,Baykit,49,RU,1589835971,79,61.67,96.37,48.47,2.93
163,São João da Barra,1,BR,1589836530,65,-21.6403,-41.0511,78.8,9.17
164,Newcastleton,100,GB,1589836374,100,55.1796,-2.8127,51.8,14.99
165,Bambous Virieux,40,MU,1589835959,56,-20.3428,57.7575,73.4,6.93
166,Yeppoon,23,AU,1589836333,77,-23.1333,150.7333,64.4,8.05
167,Rapid Valley,1,US,1589836630,44,44.0625,-103.1463,75.2,23.04
168,Hay River,90,CA,1589836370,69,60.8156,-115.7999,35.6,16.11
169,Fonte Boa,100,BR,1589836375,94,-2.4959,-66.2662,78.96,2.44
170,Ponta do Sol,40,PT,1589836350,77,32.6667,-17.1,64.4,16.11
171,Quanzhou,20,CN,1589836161,94,24.9139,118.5858,77.0,2.24
172,Sambava,86,MG,1589836157,78,-14.2667,50.1667,74.86,16.89
173,Surovikino,97,RU,1589836151,80,48.6078,42.8486,53.11,13.02
174,Mar del Plata,1,AR,1589836527,45,-38.0023,-57.5575,64.4,11.41
175,Broome County,90,US,1589836347,76,42.2506,-75.833,60.01,12.75
176,Talnakh,75,RU,1589836175,80,69.4865,88.3972,41.0,6.71
177,Manicoré,99,BR,1589836282,89,-5.8092,-61.3003,81.93,1.12
178,Jatibonico,100,CU,1589836542,56,21.9419,-79.17,87.66,7.2
179,Alagoinhas,5,BR,1589836536,87,-12.1356,-38.4192,73.71,5.46
180,Ancud,100,CL,1589836566,71,-41.8697,-73.8203,55.0,5.82
181,Morón,0,AR,1589836527,61,-34.6534,-58.6198,71.01,7.7
182,Bathsheba,75,BB,1589836229,69,13.2167,-59.5167,82.4,16.11
183,Lagoa,74,PT,1589836229,89,39.05,-27.9833,64.27,14.61
184,Harper,80,LR,1589836193,85,4.375,-7.7169,79.16,6.91
185,Russell County,90,US,1589836306,88,32.3502,-85.1999,69.8,11.41
186,Hailar,100,CN,1589836159,60,49.2,119.7,53.64,5.55
187,Dolisie,65,CG,1589836156,83,-4.1997,12.6739,73.74,4.94
188,Te Anau,13,NZ,1589836347,79,-45.4167,167.7167,38.14,1.03
189,Almaznyy,20,RU,1589835929,87,48.0448,40.045,57.2,11.18
190,Tura,0,IN,1589836162,42,25.5198,90.2201,77.9,2.84
191,Marovoay,20,MG,1589836157,65,-16.1,46.6333,77.0,9.17
192,Bengkulu,46,ID,1589836179,82,-3.8004,102.2655,76.41,3.85
193,San Patricio,40,MX,1589836567,79,19.2167,-104.7,86.0,11.41
194,Elvas,0,PT,1589836350,47,38.8815,-7.1628,75.2,2.24
195,Fortuna,58,US,1589836626,77,40.5982,-124.1573,61.0,9.17
196,Cochin,75,IN,1589836171,94,9.9399,76.2602,78.8,10.29
197,La Plata,0,AR,1589836527,83,-34.9215,-57.9545,66.0,7.25
198,Saint George,1,US,1589836626,13,37.1041,-113.5841,89.6,26.4
199,Ibiá,20,BR,1589836531,44,-19.4783,-46.5389,75.2,4.7
200,Vardø,75,NO,1589835954,82,70.3705,31.1107,33.8,11.41
201,Hong Kong,94,HK,1589836185,88,22.2855,114.1577,78.01,5.99
202,Belmonte,40,BR,1589836260,83,-15.8631,-38.8828,77.0,6.93
203,Yellowknife,90,CA,1589836642,60,62.456,-114.3525,32.0,9.17
204,Souris,40,CA,1589836373,31,49.6172,-100.2612,73.4,21.92
205,Tocopilla,11,CL,1589836561,45,-22.092,-70.1979,67.89,5.17
206,Sosnogorsk,42,RU,1589836151,79,63.6023,53.8817,46.53,4.21
207,Tanete,100,ID,1589836324,92,-3.9443,119.7848,76.41,1.1
208,Kānt,0,IN,1589836169,12,27.8,79.8,87.1,7.23
209,Port Elizabeth,100,ZA,1589836156,100,-33.918,25.5701,60.8,3.36
210,Húsavík,0,IS,1589836369,36,66.0449,-17.3389,48.2,6.93
211,Hami,0,CN,1589836159,17,42.8,93.45,72.64,8.19
212,Taltal,24,CL,1589836296,67,-25.4,-70.4833,63.32,3.85
213,Sungai Penuh,79,ID,1589836178,70,-2.0833,101.3833,66.04,3.47
214,Sinegor'ye,95,RU,1589836332,73,62.0788,150.477,35.11,3.49
215,Aksarka,100,RU,1589835971,59,66.5606,67.7975,45.54,12.35
216,Thinadhoo,95,MV,1589835970,75,0.5333,72.9333,85.37,24.49
217,Vyazemskiy,0,RU,1589836189,63,47.5378,134.7525,45.79,5.01
218,Mandera,56,KE,1589836145,52,3.9366,41.867,82.4,7.9
219,Panabá,98,MX,1589836268,38,21.2833,-88.2667,96.28,10.96
220,Dali,1,CN,1589836159,43,25.7,100.1833,58.26,4.76
221,Flin Flon,75,CA,1589836369,35,54.7682,-101.865,71.6,8.05
222,Constitución,95,CL,1589836561,83,-35.3333,-72.4167,59.65,2.64
223,Skibbereen,75,IE,1589836438,93,51.55,-9.2667,53.6,13.87
224,Kavaratti,88,IN,1589835966,75,10.5669,72.642,85.05,22.19
225,Trinidad,40,BO,1589836566,66,-14.8333,-64.9,86.0,2.17
226,Sørland,40,NO,1589836491,93,67.667,12.6934,35.6,2.24
227,Bellevue,75,US,1589836631,55,47.6104,-122.2007,66.99,10.29
228,Zhezkazgan,26,KZ,1589836176,66,47.8043,67.7144,52.52,14.41
229,Chardara,4,KZ,1589836176,46,41.2547,67.9692,60.13,3.67
230,Yulin,0,CN,1589836163,86,22.6333,110.15,73.94,0.51
231,Iisalmi,100,FI,1589836153,78,63.5592,27.1907,42.8,5.82
232,Isangel,75,VU,1589836333,82,-19.55,169.2667,66.2,11.86
233,São Filipe,7,CV,1589836229,77,14.8961,-24.4956,72.81,9.71
234,Thompson,90,CA,1589836642,35,55.7435,-97.8558,69.8,11.41
235,Falkenstein,1,DE,1589836429,60,50.4779,12.3713,55.0,3.33
236,Sun Valley,75,US,1589836625,23,39.5963,-119.776,57.0,14.99
237,Yerbogachen,100,RU,1589836324,61,61.2767,108.0108,49.44,3.31
238,Ponnāni,100,IN,1589836165,84,10.767,75.9252,82.09,13.18
239,Ivdel’,16,RU,1589836175,59,60.6911,60.4206,44.87,1.63
240,Duma,77,CN,1589836324,59,34.7653,108.135,60.8,4.47
241,Teya,6,RU,1589835970,80,60.3778,92.6267,48.88,1.97
242,Punta de Piedra,4,VE,1589836279,62,7.6176,-71.4916,87.55,2.77
243,Şalālah,0,OM,1589836147,83,17.0151,54.0924,84.2,3.36
244,Turtas,99,RU,1589835972,93,58.9417,69.1325,56.88,4.0
245,Nouakchott,24,MR,1589836195,73,18.0858,-15.9785,69.8,18.34
246,Samarai,35,PG,1589836333,87,-10.6167,150.6667,80.33,13.29
247,Mount Isa,0,AU,1589836146,72,-20.7333,139.5,66.2,1.12
248,Ziro,12,IN,1589835962,60,27.6333,93.8333,52.66,2.06
249,Somerset County,40,US,1589836347,49,40.5668,-74.5496,68.0,5.82
250,Charlestown,1,AU,1589836344,98,-32.95,151.6667,55.0,3.51
251,Klaksvík,93,FO,1589836369,70,62.2266,-6.589,44.6,16.11
252,Kopāganj,29,IN,1589836168,17,26.0233,83.5658,87.53,4.38
253,Ordu,0,TR,1589835952,79,40.9086,37.6845,48.85,1.3
254,Santa Isabel do Rio Negro,74,BR,1589836282,92,-0.4139,-65.0192,81.3,2.04
255,Verkhnyaya Salda,93,RU,1589836175,56,58.0456,60.5533,44.69,2.42
256,Safi,100,MA,1589836198,62,32.2994,-9.2372,71.02,18.14
257,Sorochinsk,87,RU,1589836151,60,52.4338,53.1583,52.14,4.52
258,Codrington,100,AU,1589836344,64,-38.2667,141.9667,55.9,13.58
259,Axim,97,GH,1589836193,82,4.8699,-2.2405,81.57,10.4
260,Algeciras,0,ES,1589836179,68,36.1333,-5.4505,69.8,2.24
261,Itarema,1,BR,1589836232,82,-2.9248,-39.9167,80.69,11.52
262,Nadym,100,RU,1589836175,81,65.5333,72.5167,48.87,22.5
263,Krasnosel’kup,96,RU,1589835971,95,65.7,82.4667,49.77,6.55
264,Mayo,90,US,1589836319,68,38.8876,-76.5119,66.2,11.41
265,Ca Mau,100,VN,1589836177,81,9.1769,105.15,82.02,4.25
266,Beeville,1,US,1589836594,55,28.4008,-97.7483,91.4,11.41
267,Arica,4,CL,1589836566,72,-18.475,-70.3042,66.2,10.29
268,Muroto-misakicho,98,JP,1589836187,90,33.2833,134.15,69.66,12.57
269,Port Hardy,75,CA,1589836371,93,50.6996,-127.4199,53.6,10.29
270,Tsaratanana,0,MG,1589836157,66,-16.7833,47.65,67.1,10.56
271,Pangnirtung,75,CA,1589836371,74,66.1451,-65.7125,35.6,11.41
272,Saldanha,100,ZA,1589836522,72,-33.0117,17.9442,59.0,2.24
273,Kamenka,100,RU,1589835925,91,51.3223,42.7678,48.99,1.01
274,Vestmannaeyjar,100,IS,1589836234,70,63.4427,-20.2734,43.95,25.55
275,Zyryanka,99,RU,1589836332,83,65.75,150.85,35.44,16.73
276,Butembo,96,CD,1589836146,60,0.15,29.2833,59.7,1.95
277,Formosa do Rio Preto,52,BR,1589836258,70,-11.0483,-45.1931,75.33,2.48
278,Ust-Maya,0,RU,1589836325,52,60.4167,134.5333,46.17,8.52
279,Apricena,75,IT,1589836511,100,41.7839,15.4437,64.4,6.93
280,Alice Springs,66,AU,1589836145,49,-23.7,133.8833,48.2,3.02
281,Menongue,0,AO,1589836521,41,-14.6585,17.691,56.89,4.5
282,Troitskoye,95,RU,1589835970,53,52.9821,84.6757,63.86,6.55
283,Adrar,0,MR,1589836328,12,20.5022,-10.0711,89.96,9.1
284,Rognan,40,NO,1589836491,94,67.0953,15.3878,37.4,5.82
285,Erenhot,89,CN,1589836162,55,43.6475,111.9767,55.17,4.5
286,Hervey Bay,7,AU,1589836336,91,-25.2986,152.8535,63.0,5.01
287,Oranjestad,20,AW,1589836542,62,12.524,-70.027,87.8,25.28
288,Maó,40,ES,1589836181,77,39.8885,4.2658,64.4,5.82
289,Vila Franca do Campo,75,PT,1589836229,93,37.7167,-25.4333,64.4,9.17
290,Sobolevo,6,RU,1589835914,75,54.4299,31.8996,39.02,9.86
291,Yuci,94,CN,1589836163,66,37.6803,112.7319,48.2,2.24
292,Grindavík,75,IS,1589836240,70,63.8424,-22.4338,44.6,18.34
293,Belaya Gora,75,RU,1589836333,96,68.5333,146.4167,30.38,9.44
294,Iracoubo,42,GF,1589836230,89,5.4802,-53.2011,79.32,8.41
295,Saint George's,20,GD,1589836545,70,12.0564,-61.7485,84.2,11.41
296,Irecê,56,BR,1589836531,52,-11.3042,-41.8558,77.16,11.83
297,Necochea,0,AR,1589836527,72,-38.5473,-58.7368,60.01,15.01
298,Betong,100,TH,1589836178,86,5.7743,101.0723,73.29,1.77
299,Namibe,9,AO,1589836521,57,-15.1961,12.1522,78.64,3.11
300,Cornélio Procópio,0,BR,1589836259,28,-23.1811,-50.6467,82.4,4.7
301,Grand Gaube,43,MU,1589835958,66,-20.0064,57.6608,68.0,1.99
302,Mpanda,12,TZ,1589836144,61,-6.3655,31.0409,62.37,1.16
303,Chabahar,0,IR,1589836158,46,25.2919,60.643,87.98,5.64
304,Viedma,62,AR,1589836560,51,-40.8135,-62.9967,64.6,11.21
305,Buala,84,SB,1589836332,79,-8.145,159.5921,83.14,10.13
306,Bilibino,36,RU,1589836333,90,68.0546,166.4372,27.09,5.61
307,Mehamn,98,NO,1589835954,94,71.0357,27.8492,32.95,5.3
308,Port-Gentil,40,GA,1589836189,94,-0.7193,8.7815,80.6,6.93
309,Ponta Delgada,75,PT,1589836522,93,37.7333,-25.6667,64.4,9.17
310,Boulder County,1,US,1589836359,31,40.0833,-105.3505,82.99,3.36
311,Ólafsvík,48,IS,1589836240,64,64.8945,-23.7142,44.64,5.37
312,Romitan,73,UZ,1589835961,71,39.9343,64.3814,55.4,2.24
313,Mogadishu,0,SO,1589836143,80,2.0371,45.3438,81.32,16.91
314,Ishikari,99,JP,1589836191,69,43.2397,141.3539,45.0,10.11
315,Beloha,0,MG,1589836157,81,-25.1667,45.05,59.41,6.96
316,Sakaiminato,75,JP,1589836186,100,35.55,133.2333,64.4,2.24
317,Shimoni,78,KE,1589835906,68,-4.6476,39.3817,80.29,16.24
318,Oxelösund,93,SE,1589836349,57,58.6706,17.1015,48.2,3.36
319,Uusikaupunki,1,FI,1589836153,80,60.8004,21.4084,39.2,4.7
320,Natchez,1,US,1589836585,47,31.5604,-91.4032,80.6,10.29
321,Charters Towers,100,AU,1589836344,82,-20.1,146.2667,65.07,8.68
322,Bom Conselho,11,BR,1589836522,81,-9.1697,-36.6797,69.39,5.48
323,Tirumullaivāsal,100,IN,1589835963,71,11.2333,79.8333,83.08,21.59
324,Belton,90,US,1589836582,67,38.812,-94.5319,60.01,12.75
325,Kahului,40,US,1589836631,62,20.8947,-156.47,84.2,20.8
326,Rūdarpur,31,IN,1589836164,22,26.4394,83.6144,86.85,6.26
327,Puerto del Rosario,20,ES,1589836182,77,28.5004,-13.8627,69.8,8.05
328,Port Blair,100,IN,1589836165,79,11.6667,92.75,83.97,22.84
329,Sabang,100,ID,1589836160,76,5.8933,95.3214,84.25,18.07
330,Boende,100,CD,1589836146,88,-0.2167,20.8667,71.31,1.48
331,Okitipupa,99,NG,1589836331,90,6.5047,4.7839,79.07,2.57
332,Yakeshi,100,CN,1589836163,41,49.2833,120.7333,50.4,5.46
333,Paamiut,0,GL,1589836234,83,61.994,-49.6678,38.98,14.65
334,Ceres,40,US,1589836621,52,37.5949,-120.9577,73.0,9.17
335,Sai Buri,100,TH,1589835974,86,6.7013,101.6168,80.26,5.88
336,Altus,1,US,1589836586,38,34.6381,-99.334,88.0,10.29
337,Geraldton,0,AU,1589836145,57,-28.7667,114.6,51.8,14.99
338,Muros,0,ES,1589836482,72,42.7762,-9.0603,61.0,3.85
339,Santa Rosa,20,PH,1589836180,83,14.3122,121.1114,84.2,2.24
340,Fuerte Olimpo,0,PY,1589836244,50,-21.0415,-57.8738,77.04,4.47
341,Surat Thani,100,TH,1589836158,82,9.1401,99.3331,79.47,6.49
342,Algiers,40,DZ,1589836177,82,36.7525,3.042,62.6,4.7
343,Mapiripán,37,CO,1589836288,74,2.8892,-72.1256,83.35,4.83
344,Dezful,6,IR,1589835905,12,32.3811,48.4058,89.29,3.53
345,Longonjo,53,AO,1589836521,38,-12.9067,15.2533,60.46,2.37
346,Yerofey Pavlovich,97,RU,1589836324,75,53.9667,121.9667,44.67,2.66
347,Duncan,1,US,1589836586,48,34.5023,-97.9578,84.0,3.36
348,Machiques,99,VE,1589836551,50,10.0644,-72.545,92.3,3.11
349,Floresta,16,BR,1589836522,51,-8.6011,-38.5686,80.64,11.7
350,Flinders,6,AU,1589836648,91,-34.5833,150.8552,60.01,1.01
351,Lazurne,0,UA,1589835944,100,46.084,32.5295,57.99,5.99
352,Sur,0,OM,1589836147,32,22.5667,59.5289,90.54,6.42
353,Sechura,82,PE,1589836557,54,-5.5569,-80.8222,79.18,12.73
354,Lüderitz,86,NA,1589836522,59,-26.6481,15.1594,66.2,1.12
355,Höfn,43,IS,1589836370,69,64.2539,-15.2082,41.22,11.59
356,Dzaoudzi,0,YT,1589835957,78,-12.7887,45.2699,80.6,3.36
357,Yunhe,0,CN,1589836296,58,34.0833,119.7167,56.61,13.6
358,Mackenzie,90,CA,1589836370,48,55.2999,-123.1698,60.8,6.93
359,Suileng,72,CN,1589836162,64,47.25,127.0833,49.62,10.67
360,Tigil’,16,RU,1589836332,59,57.8,158.6667,43.16,3.18
361,Baracoa,80,CU,1589836542,69,20.3467,-74.4958,84.96,2.82
362,Awjilah,0,LY,1589835903,14,29.1081,21.2869,88.7,4.14
363,Novikovo,1,RU,1589835926,83,51.1537,37.8879,42.51,10.51
364,Vila,60,PT,1589836440,58,42.0304,-8.1588,64.0,3.36
365,Tamandaré,1,BR,1589836522,81,-8.7597,-35.1047,79.63,5.84
366,Nortelândia,17,BR,1589836255,76,-14.4547,-56.8028,78.58,2.77
367,Puerto Escondido,75,MX,1589836541,74,15.85,-97.0667,86.0,6.93
368,Daitari,100,IN,1589835967,74,21.1,85.75,79.54,3.8
369,Metlaltoyuca,40,MX,1589836269,52,20.7333,-97.85,93.2,9.17
370,Lorengau,48,PG,1589836332,81,-2.0226,147.2712,82.74,11.88
371,Chumikan,100,RU,1589836326,95,54.7183,135.315,32.81,8.9
372,Bulnes,100,CL,1589836298,72,-36.7423,-72.2985,64.4,5.82
373,Ballachulish,100,GB,1589836376,96,56.6774,-5.1308,53.01,1.01
374,Takoradi,67,GH,1589836193,83,4.8845,-1.7554,80.96,10.0
375,Jérémie,20,HT,1589836557,63,18.65,-74.1167,85.14,3.13
376,Stryn,20,NO,1589836491,90,61.9045,6.7226,39.2,5.82
377,Yining,64,CN,1589836297,62,29.0361,114.5636,58.48,1.12
378,Nouméa,75,NC,1589836191,82,-22.2763,166.4572,71.01,11.14
379,Hornepayne,100,CA,1589836370,24,49.2138,-84.7705,65.05,10.09
380,Forbes,8,AU,1589836342,80,-33.3833,148.0167,55.99,1.99
381,Vung Tau,100,VN,1589836176,79,10.346,107.0843,83.71,7.38
382,Mamakan,78,RU,1589836326,72,57.8161,114.0028,44.11,0.83
383,Usogorsk,100,RU,1589835917,71,63.4106,48.6872,45.41,2.53
384,Carnduff,90,CA,1589836367,36,49.1667,-101.8009,72.0,23.0
385,Ploemeur,0,FR,1589836449,87,47.7333,-3.4333,60.01,4.7
386,Vătava,0,RO,1589835936,71,46.9667,24.7667,54.0,2.24
387,Labuhan,59,ID,1589836473,88,-6.8844,112.2051,78.89,6.13
388,Eyl,5,SO,1589836142,68,7.9803,49.8164,84.78,18.77
389,Zhalantun,2,CN,1589836163,44,48.0,122.7167,48.99,1.45
390,Colac,100,AU,1589836343,79,-38.3333,143.5833,55.0,10.2
391,Bunia,51,CD,1589836146,66,1.5667,30.25,64.2,1.54
392,Weiser,90,US,1589836626,76,44.251,-116.9693,55.4,8.48
393,Siyabuswa,0,ZA,1589836156,28,-25.1132,29.0445,57.9,1.48
394,Vanavara,88,RU,1589836325,55,60.34,102.2797,50.49,2.55
395,Novyy Urgal,95,RU,1589836330,54,51.0736,132.5642,47.14,2.82
396,Bocas del Toro,100,PA,1589836286,100,9.3333,-82.25,68.0,6.55
397,Sitka,75,US,1589836626,58,57.0531,-135.33,53.6,4.7
398,Pizarro,74,CO,1589836283,77,4.9533,-77.366,82.35,9.33
399,Adeje,20,ES,1589836179,72,28.1227,-16.726,70.0,16.11
400,Sivaki,100,RU,1589836325,47,52.6333,126.75,54.05,7.11
401,Kilindoni,93,TZ,1589835904,78,-7.9139,39.6668,79.99,14.14
402,Darhan,6,MN,1589836189,50,49.4867,105.9228,52.93,1.21
403,Mīzan Teferī,100,ET,1589835912,60,6.9833,35.5833,62.92,2.93
404,Diyarb Najm,0,EG,1589836149,27,30.7542,31.4393,87.8,9.17
405,Inhambane,0,MZ,1589836157,70,-23.865,35.3833,68.76,6.67
406,Oyama,75,JP,1589836186,88,36.3,139.8,68.0,11.41
407,Uauá,0,BR,1589836230,49,-9.8414,-39.4817,77.52,10.22
408,Padang,99,ID,1589836179,76,-0.9492,100.3543,80.38,3.96
409,Le Mars,90,US,1589836335,82,42.7942,-96.1656,60.01,12.75
410,Siilinjärvi,100,FI,1589836153,75,63.0833,27.6667,42.8,5.82
411,Embi,100,KZ,1589836153,80,48.8264,58.1442,50.43,11.14
412,Halifax,77,CA,1589836635,47,44.6453,-63.5724,57.0,1.01
413,Puerto Madryn,93,AR,1589836561,39,-42.7692,-65.0385,66.88,11.27
414,Kosa,7,RU,1589835924,85,59.9445,54.9977,42.48,4.27
415,Mwanza,20,TZ,1589836144,73,-2.5167,32.9,71.6,5.82
416,Cooma,36,AU,1589836343,100,-36.2333,149.1333,33.8,8.05
417,Nkowakowa,0,ZA,1589836157,35,-23.8878,30.2871,55.4,5.82
418,Businga,94,CD,1589836146,86,3.3333,20.8833,70.86,1.48
419,Sampit,91,ID,1589836178,97,-2.5333,112.95,74.43,1.21
420,Jagraon,0,IN,1589836169,16,30.7833,75.4833,84.78,3.29
421,Khatanga,100,RU,1589836326,97,71.9667,102.5,35.98,4.25
422,Pekan,20,MY,1589836182,94,3.4836,103.3996,78.8,1.12
423,Mareeba,43,AU,1589836338,95,-17.0,145.4333,72.0,3.0
424,Emilio Carranza,56,MX,1589836271,68,19.9711,-96.6114,85.37,7.81
425,Shimoda,100,JP,1589836186,96,34.6667,138.95,61.0,5.17
426,Nikolayevskaya,61,RU,1589835914,85,47.6139,41.5023,52.25,10.18
427,Sola,80,VU,1589836333,76,-13.8833,167.55,80.44,22.21
428,Soe,100,ID,1589836178,81,-9.8607,124.284,67.28,4.63
429,Salina,1,US,1589836576,43,38.8403,-97.6114,75.0,5.82
430,Shaowu,100,CN,1589836161,82,27.3409,117.4831,67.21,1.7
431,Dauphin,1,CA,1589836369,22,51.1494,-100.0502,77.0,18.34
432,Niamey,2,NE,1589836195,22,13.5137,2.1098,98.6,2.24
433,Puerto El Triunfo,68,SV,1589836545,55,13.2833,-88.55,91.4,6.93
434,Najrān,40,SA,1589836143,18,17.4924,44.1277,84.2,7.92
435,Mingora,93,PK,1589836159,40,34.7758,72.3625,62.96,6.67
436,Jánoshida,32,HU,1589835948,72,47.3833,20.0667,60.8,2.24
437,High Level,90,CA,1589836635,61,58.5169,-117.136,46.4,2.24
438,Brownsville,1,US,1589836594,49,25.9018,-97.4975,91.4,14.99
439,Auki,50,SB,1589836332,81,-8.7676,160.7034,81.59,3.58
440,Ruthin,100,GB,1589836372,94,53.1137,-3.3178,57.0,4.0
441,Glens Falls,1,US,1589836612,45,43.3095,-73.644,66.2,3.36
442,Bodītī,73,ET,1589836149,53,6.9667,37.8667,60.15,3.67
443,Shelburne,20,CA,1589836642,87,44.0787,-80.2041,57.2,11.41
444,Bonthe,100,SL,1589836350,86,7.5264,-12.505,79.29,6.44
445,Hauterive,0,FR,1589836456,63,46.0901,3.4459,60.8,2.24
446,Dubbo,40,AU,1589836145,87,-32.25,148.6167,53.6,11.41
447,Presidente Médici,58,BR,1589836299,81,-11.1753,-61.9014,81.66,2.59
448,Nālūt,65,LY,1589836324,39,30.3333,10.85,72.03,22.5
449,Omsukchan,1,RU,1589836332,70,62.5333,155.8,34.48,3.94
450,Gisors,7,FR,1589836457,71,49.2818,1.7801,59.0,3.36
451,Kuril’sk,98,RU,1589836333,89,45.2333,147.8833,35.08,12.84
452,Rawson,100,AR,1589836561,37,-43.3002,-65.1023,65.61,16.89
453,Walvis Bay,0,NA,1589836522,16,-22.9575,14.5053,78.8,16.11
454,Komsomolskiy,99,UZ,1589835971,82,40.4272,71.7189,57.2,9.17
455,Nome,1,US,1589836631,27,64.5011,-165.4064,55.99,17.22
456,Nueva Loja,75,EC,1589836551,100,0.0847,-76.8828,73.4,8.05
457,Vestmanna,97,FO,1589836368,70,62.1564,-7.1664,44.6,16.11
458,Iwanai,100,JP,1589836191,63,42.9744,140.5089,46.17,6.98
459,Byron Bay,75,AU,1589836344,87,-28.65,153.6167,59.0,3.36
460,Oneonta,100,US,1589836613,86,42.4529,-75.0638,60.01,5.01
461,Kismayo,59,SO,1589836142,81,-0.3582,42.5454,78.94,14.92
462,Brora,33,GB,1589836377,54,58.0099,-3.8518,57.2,11.41
463,Moranbah,94,AU,1589836407,77,-22.0016,148.0466,63.37,20.56
464,Antsohihy,0,MG,1589836157,60,-14.8796,47.9875,76.48,11.99
465,Pisco,20,PE,1589836566,82,-13.7,-76.2167,68.0,6.93
466,Ulaangom,29,MN,1589836176,31,49.9811,92.0667,60.64,2.21
467,Prado,1,BR,1589836531,83,-17.3411,-39.2208,74.43,8.55
468,Cap Malheureux,31,MU,1589835958,66,-19.9842,57.6142,68.0,1.99
469,Gizo,14,SB,1589836332,77,-8.103,156.8419,83.55,8.68
470,Karratha,100,AU,1589836432,32,-20.7377,116.8463,74.28,13.65
471,Boa Vista,40,BR,1589836551,52,2.8197,-60.6733,87.8,8.05
472,Meulaboh,100,ID,1589836160,81,4.1363,96.1285,78.55,3.91
473,Vilhena,33,BR,1589836566,69,-12.7406,-60.1458,77.97,1.32
474,Dingle,80,PH,1589836278,85,10.9995,122.6711,79.5,2.13
475,Jiazi,100,CN,1589836160,84,22.8779,116.067,79.23,8.59
476,Prince Rupert,90,CA,1589836642,81,54.3161,-130.3201,51.8,3.36
477,Touros,20,BR,1589836230,78,-5.1989,-35.4608,82.4,8.05
478,Omboué,100,GA,1589836353,88,-1.5746,9.2618,78.3,6.51
479,Ostrovnoy,100,RU,1589835926,95,68.0531,39.5131,32.79,8.97
480,Changwat Yasothon,81,TH,1589835973,73,15.75,104.1333,84.99,5.93
481,Koungou,0,YT,1589836157,78,-12.7336,45.2042,80.6,3.36
482,Marawi,84,PH,1589836283,91,7.9986,124.2928,78.01,5.99
483,Srīvardhan,25,IN,1589836163,86,18.0333,73.0167,81.46,7.87
484,Gazli,45,UZ,1589835971,28,40.1333,63.45,63.23,4.34
485,Divo,71,CI,1589836157,91,5.8397,-5.36,74.52,3.06
486,Socorro,20,US,1589836626,8,31.6546,-106.3033,96.01,11.41
487,Arbuzynka,23,UA,1589835948,80,47.9097,31.3196,52.18,7.9
488,Saint-Louis,36,SN,1589836349,30,16.3333,-15.0,93.2,6.93
489,Singkawang,100,ID,1589836178,92,0.9,109.0,75.92,3.29
490,Narsaq,70,GL,1589836234,17,60.9167,-46.05,53.6,12.75
491,Sabhā,0,LY,1589836192,10,27.0377,14.4283,87.66,8.25
492,Doka,61,SD,1589836150,66,13.5167,35.7667,74.16,4.63
493,Porto-Novo,40,BJ,1589836150,74,6.4965,2.6036,86.0,16.11
494,Tautira,75,PF,1589836570,74,-17.7333,-149.15,84.2,8.05
495,Pathein,91,MM,1589836174,75,16.7833,94.7333,82.9,5.88
496,Umm Kaddadah,73,SD,1589835913,35,13.6017,26.6876,86.41,9.6
497,Ust’-Kulom,0,RU,1589835917,89,61.6864,53.6902,42.98,3.58
498,Soio,65,AO,1589836143,82,-6.1349,12.3689,79.39,6.76
499,Deep River,1,CA,1589836367,17,46.1001,-77.4995,66.99,13.87
500,The Valley,20,AI,1589836542,58,18.217,-63.0578,86.0,16.11
501,Torquay,100,GB,1589836195,8,50.4638,-3.5143,55.0,9.15
502,Sokoni,75,TZ,1589836144,69,-6.4333,39.55,80.6,6.93
503,Tessalit,0,ML,1589836326,10,20.1986,1.0114,86.58,10.04
504,Eirunepé,42,BR,1589836551,75,-6.6603,-69.8736,83.55,3.98
505,Asău,36,RO,1589835942,57,46.4333,26.4,54.0,4.32
506,Lata,96,PT,1589836386,89,40.1629,-8.3327,64.0,1.97
507,Januária,20,BR,1589836531,72,-15.4833,-44.3667,72.99,3.47
508,Evanston,90,US,1589836600,77,42.0411,-87.6901,62.6,10.29
509,Namalenga,58,TZ,1589835957,83,-10.95,39.1,68.81,2.15
510,Athni,57,IN,1589836173,48,16.7333,75.0667,81.03,16.24
511,Lufilufi,64,WS,1589836306,71,-13.8745,-171.5986,83.95,8.14
512,Nizhniy Odes,92,RU,1589835914,75,63.6445,54.856,46.94,5.08
513,Tiznit,100,MA,1589836367,31,29.5833,-9.5,76.98,2.66
514,General Pico,0,AR,1589836561,44,-35.6566,-63.7568,70.75,8.5
515,Poplar Bluff,90,US,1589836582,56,36.757,-90.3929,68.0,11.41
516,Nsanje,0,MW,1589836156,88,-16.92,35.262,60.64,2.42
517,Eureka,52,US,1589836626,65,40.8021,-124.1637,61.0,1.99
518,Alamogordo,1,US,1589836625,8,32.8995,-105.9603,96.8,5.82
519,Juneau,90,US,1589836626,66,58.3019,-134.4197,53.6,10.29
520,Karatau,98,KZ,1589836176,55,43.1667,70.4667,55.04,10.33
521,Date,100,JP,1589836191,72,42.4681,140.8681,47.43,9.31
522,Māngrol,40,IN,1589836168,86,21.1167,70.1167,80.46,11.39
523,Adelaide,100,AU,1589836144,39,-34.9333,138.6,64.99,12.75
524,Launceston,90,AU,1589836146,93,-41.45,147.1667,50.0,6.93
525,Zeya,100,RU,1589836189,69,53.75,127.2667,50.61,9.51
526,Micheweni,97,TZ,1589835904,69,-4.9667,39.8333,80.89,14.0
527,Abu Samrah,59,SY,1589835906,17,35.3029,37.1841,83.05,4.76
528,Broken Hill,100,AU,1589836145,62,-31.95,141.4333,57.2,12.75
529,Lamar County,1,US,1589836331,51,33.6668,-95.5836,82.99,6.93
530,Svarstad,76,NO,1589836454,63,59.399,9.9698,42.01,1.99
531,Yulara,88,AU,1589836375,37,-25.2406,130.9889,51.8,2.24
532,Erice,40,IT,1589836198,94,38.037,12.5865,68.0,11.41
533,Banjar,40,ID,1589836179,100,-8.19,114.9675,80.6,3.36
534,Abu Kamal,0,SY,1589836145,20,34.4506,40.9171,89.71,14.25
535,Shelby County,90,US,1589836591,64,35.2001,-89.8668,72.0,6.93
536,Hannover,77,DE,1589836426,67,52.3705,9.7332,62.6,3.36
537,San Quintín,0,MX,1589836302,58,30.4833,-115.95,71.1,17.27
538,Tadine,100,NC,1589836331,68,-21.55,167.8833,70.0,12.35
539,Maturin,27,VE,1589836557,44,9.75,-63.1767,89.8,12.73
540,Dunedin,6,NZ,1589836192,76,-45.8742,170.5036,48.0,4.14
541,Tambacounda,100,SN,1589836192,21,13.7539,-13.7586,100.4,4.7
542,Jijiga,42,ET,1589836149,51,9.35,42.8,66.31,6.96
543,Pacific Grove,75,US,1589836622,49,36.6177,-121.9166,68.0,11.41
544,Tuzha,100,RU,1589835917,85,57.6062,47.936,46.22,6.35
545,Ciudad Lázaro Cárdenas,65,MX,1589836570,45,17.9583,-102.2,85.91,12.59
546,Atambua,100,ID,1589836179,79,-9.1061,124.8925,73.49,5.88
547,Buraydah,40,SA,1589836143,29,26.326,43.975,91.4,10.29
